City_ID,City,Lat,Lng,Max Temp,Humidity,Cloudiness,Wind Speed,Country,Date
0,east london,-33.0153,27.9116,19.81,71,100,3.13,ZA,1681324790
1,mecca,21.4267,39.8261,23.51,48,8,5.59,SA,1681324782
2,marawi,7.9986,124.2928,20.24,92,1,1.35,PH,1681324790
3,albany,42.6001,-73.9662,24.65,29,1,0.45,US,1681324752
4,ushuaia,-54.8,-68.3,4.79,60,40,10.29,AR,1681324791
5,panaba,21.2833,-88.2667,32.18,37,60,6.13,MX,1681324791
6,zhigansk,66.7697,123.3711,-24.17,100,100,1.6,RU,1681324791
7,puerto ayora,-0.7393,-90.3518,30.98,84,83,3.13,EC,1681324791
8,rikitea,-23.1203,-134.9692,25.24,69,76,5.66,PF,1681324791
9,kankon,15.0167,74.0167,26.53,81,98,2.11,IN,1681324791
10,castro,-24.7911,-50.0119,22.58,65,91,2.07,BR,1681324792
11,dingle,10.9995,122.6711,23.71,81,100,0.8,PH,1681324792
12,calahorra,42.3051,-1.9652,10.95,83,100,4.3,ES,1681324792
13,torbay,47.6666,-52.7314,8.43,63,75,6.69,CA,1681324548
14,port lincoln,-34.7333,135.8667,13.78,76,1,1.58,AU,1681324792
15,georgetown,5.4112,100.3354,29.97,79,20,1.54,MY,1681324772
16,hithadhoo,-0.6,73.0833,28.49,70,11,1.98,MV,1681324792
17,hobart,-42.8794,147.3294,12.92,95,100,0.0,AU,1681324670
18,ribeira grande,38.5167,-28.7,17.22,88,75,4.02,PT,1681324793
19,hilo,19.7297,-155.09,23.68,86,100,2.57,US,1681324793
20,punta arenas,-53.15,-70.9167,7.01,56,0,4.12,CL,1681324623
21,talnakh,69.4865,88.3972,-27.11,97,100,2.63,RU,1681324793
22,asau,46.4333,26.4,7.51,91,100,1.68,RO,1681324793
23,kerikeri,-35.2268,173.9474,12.17,95,76,0.72,NZ,1681324793
24,cape town,-33.9258,18.4232,17.27,67,0,1.03,ZA,1681324632
25,tiksi,71.6872,128.8694,-26.41,100,94,1.25,RU,1681324794
26,shimoda,34.6667,138.95,11.72,73,1,4.14,JP,1681324794
27,san cristobal,7.7669,-72.225,27.1,54,100,3.02,VE,1681324794
28,kapaa,22.0752,-159.319,24.5,84,75,6.17,US,1681324794
29,okhotsk,59.3833,143.3,-14.67,100,92,2.26,RU,1681324794
30,dikson,73.5069,80.5464,-21.36,95,90,8.1,RU,1681324794
31,honnali,14.25,75.6667,24.98,32,4,1.27,IN,1681324795
32,lebu,-37.6167,-73.65,15.93,80,100,3.71,CL,1681324795
33,vardo,70.3705,31.1107,-0.01,64,75,8.75,NO,1681324795
34,manosque,43.8288,5.7869,13.09,89,100,4.33,FR,1681324795
35,port alfred,-33.5906,26.891,18.99,82,100,0.89,ZA,1681324795
36,sur,22.5667,59.5289,28.5,58,15,4.1,OM,1681324795
37,isangel,-19.55,169.2667,26.19,85,9,3.01,VU,1681324796
38,coquimbo,-29.9533,-71.3436,18.85,72,0,5.66,CL,1681324235
39,tuktoyaktuk,69.4541,-133.0374,-22.0,71,75,6.69,CA,1681324796
40,redwater,33.3582,-94.2544,25.68,49,58,3.14,US,1681324796
41,qaanaaq,77.484,-69.3632,-15.22,80,100,0.93,GL,1681324796
42,quatre cocos,-20.2078,57.7625,25.06,83,18,3.29,MU,1681324796
43,manono,-7.3,27.4167,21.74,96,100,1.1,CD,1681324796
44,flinders,-34.5833,150.8552,14.65,87,59,4.8,AU,1681324797
45,severnyy,50.677,36.5532,12.02,46,0,8.05,RU,1681324797
46,rocha,-34.4833,-54.3333,19.45,71,100,6.66,UY,1681324797
47,new norfolk,-42.7826,147.0587,13.17,81,67,0.43,AU,1681324797
48,saint-gaudens,43.0833,0.6667,7.79,94,90,2.31,FR,1681324797
49,requena,39.4883,-1.1004,20.84,35,100,5.15,ES,1681324797
50,carnarvon,-24.8667,113.6333,21.81,75,8,9.43,AU,1681324797
51,deputatskiy,69.3,139.9,-27.31,98,11,2.36,RU,1681324797
52,hamilton,39.1834,-84.5333,25.83,32,0,5.14,US,1681324223
53,les cayes,18.2,-73.75,28.62,65,40,5.32,HT,1681324798
54,bengkulu,-3.8004,102.2655,23.91,91,60,1.61,ID,1681324798
55,kibaya,-5.3,36.5667,16.08,96,100,1.9,TZ,1681324798
56,mataura,-46.1927,168.8643,11.38,98,100,2.72,NZ,1681324798
57,busselton,-33.65,115.3333,18.62,73,96,7.72,AU,1681324798
58,clyde river,70.4692,-68.5914,-13.87,72,100,12.86,CA,1681324798
59,rawson,-43.3002,-65.1023,10.84,47,91,9.61,AR,1681324798
60,kondol,52.8189,45.058,12.92,43,100,4.34,RU,1681324798
61,hermanus,-34.4187,19.2345,16.0,80,100,3.01,ZA,1681324799
62,ancud,-41.8697,-73.8203,15.87,60,100,2.25,CL,1681324799
63,yerbogachen,61.2767,108.0108,-20.7,98,18,1.54,RU,1681324799
64,mandurah,-32.55,115.7,19.95,66,100,7.92,AU,1681324656
65,ambanja,-13.6833,48.45,23.47,92,63,1.13,MG,1681324799
66,vaini,-21.2,-175.2,25.09,88,20,2.57,TO,1681324799
67,severo-kurilsk,50.6789,156.125,-0.76,95,100,10.46,RU,1681324799
68,narsaq,60.9167,-46.05,4.12,74,41,0.67,GL,1681324799
69,elban,50.1018,136.5094,-2.43,80,100,2.97,RU,1681324800
70,hofn,64.2539,-15.2082,6.01,56,75,5.66,IS,1681324800
71,alekseyevka,50.6309,38.6903,11.2,59,100,6.79,RU,1681324800
72,khatanga,71.9667,102.5,-8.74,80,94,10.67,RU,1681324800
73,bandar-e lengeh,26.5579,54.8807,26.06,57,21,0.0,IR,1681324801
74,baykit,61.67,96.37,-17.12,99,100,1.44,RU,1681324801
75,roma,43.2128,-75.4557,24.34,37,0,6.17,US,1681324801
76,uige,-7.6087,15.0613,19.14,99,100,1.38,AO,1681324802
77,atuona,-9.8,-139.0333,27.29,67,100,5.93,PF,1681324802
78,manokwari,-0.8667,134.0833,25.68,80,98,0.88,ID,1681324803
79,longyearbyen,78.2186,15.6401,0.91,75,75,4.12,SJ,1681324659
80,bluff,-46.6,168.3333,11.56,86,100,9.2,NZ,1681324803
81,dickinson,29.4608,-95.0513,26.19,62,40,7.2,US,1681324803
82,makakilo city,21.3469,-158.0858,24.18,69,0,6.17,US,1681324804
83,tuatapere,-46.1333,167.6833,10.97,95,100,2.65,NZ,1681324804
84,port blair,11.6667,92.75,26.93,78,23,2.09,IN,1681324804
85,mar del plata,-38.0023,-57.5575,16.64,57,40,5.66,AR,1681324728
86,vilhena,-12.7406,-60.1458,30.12,62,40,2.06,BR,1681324732
87,sobolevo,54.4299,31.8996,10.56,58,100,4.07,RU,1681324805
88,iquitos,-3.7481,-73.2472,32.02,70,75,2.06,PE,1681324805
89,tres arroyos,-38.3739,-60.2798,15.3,43,81,7.91,AR,1681324806
90,rybachiy,48.7073,44.7449,13.92,47,100,9.69,RU,1681324806
91,gharo,24.7424,67.5856,27.12,54,100,6.66,PK,1681324806
92,avera,33.194,-82.5271,26.62,27,4,3.4,US,1681324806
93,ous,60.9058,61.5186,0.12,91,100,3.22,RU,1681324806
94,chokurdakh,70.6333,147.9167,-19.65,95,100,1.39,RU,1681324807
95,thompson,55.7435,-97.8558,-1.91,86,100,5.14,CA,1681324807
96,kaitangata,-46.2817,169.8464,11.3,93,100,4.79,NZ,1681324807
97,shenjiamen,29.9576,122.298,12.16,78,22,3.13,CN,1681324807
98,tasiilaq,65.6145,-37.6368,2.09,92,70,5.07,GL,1681324808
99,mahebourg,-20.4081,57.7,25.16,88,20,2.06,MU,1681324808
100,saint george,37.1041,-113.5841,27.46,19,0,5.36,US,1681324809
101,barrow,71.2906,-156.7887,-23.99,77,20,4.12,US,1681324809
102,monte alegre de minas,-18.8706,-48.8808,25.87,67,100,2.0,BR,1681324809
103,lucea,18.451,-78.1736,29.92,67,7,1.78,JM,1681324809
104,jamestown,42.097,-79.2353,24.73,40,20,9.77,US,1681324553
105,mount gambier,-37.8333,140.7667,14.89,95,60,3.48,AU,1681324810
106,bredasdorp,-34.5322,20.0403,14.13,77,100,2.38,ZA,1681324810
107,roebourne,-20.7833,117.1333,29.25,67,100,1.63,AU,1681324810
108,great falls,47.5002,-111.3008,7.87,41,100,2.06,US,1681324810
109,hornepayne,49.2138,-84.7705,13.86,81,96,2.05,CA,1681324811
110,bethel,41.3712,-73.414,27.79,29,0,5.14,US,1681324811
111,alindao,5.0267,21.2088,25.98,59,62,1.01,CF,1681324811
112,harer,9.3094,42.1258,17.25,70,69,2.27,ET,1681324811
113,ponta do sol,32.6667,-17.1,20.07,58,6,2.94,PT,1681324812
114,harper,4.375,-7.7169,27.2,84,5,2.9,LR,1681324812
115,novobureyskiy,49.798,129.8774,-0.18,64,100,4.78,RU,1681324813
116,harnosand,62.6323,17.9379,6.0,98,100,7.0,SE,1681324813
117,butaritari,3.0707,172.7902,27.41,73,97,1.95,KI,1681324813
118,lakatoro,-16.0999,167.4164,26.88,83,95,3.23,VU,1681324813
119,mao,39.8885,4.2658,17.31,94,0,3.09,ES,1681324813
120,avarua,-21.2078,-159.775,26.03,78,98,3.6,CK,1681324813
121,areosa,41.7178,-8.8571,12.37,57,78,6.25,PT,1681324814
122,nchelenge,-9.3451,28.734,21.39,85,100,0.89,ZM,1681324814
123,borovskoy,53.8,64.15,6.86,50,3,3.27,KZ,1681324815
124,saskylakh,71.9167,114.0833,-13.47,91,100,7.62,RU,1681324815
125,kenai,60.5544,-151.2583,3.05,84,100,3.09,US,1681324815
126,buribay,51.9617,58.1592,8.39,57,100,2.68,RU,1681324815
127,victoria,22.2855,114.1577,24.03,90,100,1.34,HK,1681324816
128,cabedelo,-6.9811,-34.8339,28.37,76,35,6.97,BR,1681324816
129,eyl,7.9803,49.8164,28.31,72,99,5.96,SO,1681324816
130,pacific grove,36.6177,-121.9166,15.3,71,0,7.2,US,1681324575
131,berlevag,70.8578,29.0864,-2.0,64,0,6.17,NO,1681324817
132,nikolskoye,59.7035,30.7861,8.94,94,32,2.57,RU,1681324818
133,tsumeb,-19.2333,17.7167,24.95,32,67,3.1,NA,1681324818
134,khonsa,27.0167,95.5667,17.22,42,0,2.2,IN,1681324818
135,sistranda,63.7256,8.834,9.98,69,1,10.98,NO,1681324819
136,pangkalanbuun,-2.6833,111.6167,23.52,95,97,1.13,ID,1681324820
137,benguela,-12.5763,13.4055,26.33,83,100,1.72,AO,1681324820
138,pasighat,28.0667,95.3333,21.55,56,0,1.95,IN,1681324820
139,broken hill,-31.95,141.4333,11.48,84,0,4.64,AU,1681324821
140,sisimiut,66.9395,-53.6735,-3.16,86,98,4.23,GL,1681324821
141,bahia blanca,-38.7196,-62.2724,17.68,41,42,4.47,AR,1681324821
142,nastola,60.95,25.9333,4.24,98,100,3.33,FI,1681324821
143,ambon,-3.6954,128.1814,25.08,94,40,1.03,ID,1681324822
144,gambela,8.25,34.5833,26.73,61,100,0.69,ET,1681324822
145,laguna,38.421,-121.4238,16.27,67,100,4.63,US,1681324822
146,bonnyville,54.2668,-110.735,4.89,58,0,3.69,CA,1681324822
147,abha,18.2164,42.5053,17.9,72,0,1.54,SA,1681324823
148,humaita,-7.5061,-63.0208,30.15,66,100,0.46,BR,1681324823
149,allahganj,27.55,79.6833,28.55,22,70,3.65,IN,1681324824
150,kruisfontein,-34.0033,24.7314,16.05,62,100,0.52,ZA,1681324824
151,hirara,24.8,125.2833,23.15,83,75,4.63,JP,1681324582
152,aleksandrov gay,50.147,48.5704,12.91,65,100,10.07,RU,1681324825
153,lorengau,-2.0226,147.2712,27.29,80,97,5.4,PG,1681324825
154,sirnak,37.5228,42.4594,10.04,88,92,1.79,TR,1681324825
155,havelock,34.8791,-76.9013,27.21,40,0,3.58,US,1681324826
156,saint-philippe,-21.3585,55.7679,25.77,83,37,0.52,RE,1681324827
157,williston,48.147,-103.618,12.67,45,92,1.79,US,1681324768
158,olafsvik,64.8945,-23.7142,4.31,73,100,3.81,IS,1681324827
159,progreso,21.2833,-89.6667,31.06,60,2,5.73,MX,1681324561
160,cherskiy,68.75,161.3,-28.36,100,100,2.26,RU,1681324827
161,ginda,30.6945,78.4932,12.98,36,0,3.66,IN,1681324828
162,nouadhibou,20.931,-17.0347,21.99,73,53,5.14,MR,1681324828
163,bambous virieux,-20.3428,57.7575,25.14,88,20,2.06,MU,1681324828
164,tigil,57.8,158.6667,-20.41,100,57,1.02,RU,1681324828
165,davila,18.4726,120.5763,25.99,88,34,7.48,PH,1681324828
166,touros,-5.1989,-35.4608,28.48,74,100,7.1,BR,1681324623
167,yellowknife,62.456,-114.3525,-5.71,73,100,2.57,CA,1681324828
168,vestmannaeyjar,63.4427,-20.2734,8.55,57,0,5.14,IS,1681324829
169,ejura,7.3856,-1.3562,30.4,45,55,2.33,GH,1681324829
170,yatou,37.15,122.3833,8.86,53,93,5.46,CN,1681324829
171,codrington,-38.2667,141.9667,14.83,94,92,1.92,AU,1681324829
172,norman wells,65.282,-126.8329,-2.98,54,75,5.66,CA,1681324829
173,pattani,6.75,100.4167,24.84,94,100,0.59,TH,1681324830
174,kasempa,-13.4584,25.8338,17.83,95,100,2.1,ZM,1681324830
175,matara,5.9485,80.5353,25.76,86,98,3.2,LK,1681324830
176,ola,59.5833,151.2833,-14.92,83,3,3.58,RU,1681324830
177,kodiak,57.79,-152.4072,4.73,56,20,4.12,US,1681324831
178,shelburne,44.0787,-80.2041,24.06,39,0,9.04,CA,1681324831
179,siguiri,11.6667,-9.5,34.87,17,70,1.74,GN,1681324831
180,upernavik,72.7868,-56.1549,-6.17,85,63,3.2,GL,1681324831
181,bintulu,3.1667,113.0333,26.23,94,20,2.06,MY,1681324832
182,saldanha,-33.0117,17.9442,17.03,80,100,4.21,ZA,1681324832
183,loandjili,-4.7561,11.8578,27.18,80,100,2.14,CG,1681324832
184,airai,-8.9266,125.4092,16.15,93,100,1.1,TL,1681324832
185,ilulissat,69.2167,-51.1,-2.99,86,75,3.6,GL,1681324833
186,bathsheba,13.2167,-59.5167,30.34,58,40,8.23,BB,1681324834
187,mbaiki,3.8678,17.9892,22.17,80,67,0.95,CF,1681324834
188,luderitz,-26.6481,15.1594,15.27,76,5,4.58,NA,1681324834
189,sept-iles,50.2001,-66.3821,12.0,62,75,5.14,CA,1681324834
190,chuy,-33.6971,-53.4616,19.08,88,100,5.09,UY,1681324835
191,acapulco,16.8634,-99.8901,31.9,48,0,5.14,MX,1681324692
192,waingapu,-9.6567,120.2641,25.65,87,95,2.59,ID,1681324835
193,korem,12.5058,39.5228,14.35,84,88,1.11,ET,1681324835
194,kalmunai,7.4167,81.8167,27.07,80,81,1.33,LK,1681324835
195,tessalit,20.1986,1.0114,31.09,8,100,3.25,ML,1681324835
196,glazov,58.1394,52.6584,3.68,82,6,2.38,RU,1681324836
197,telde,27.9924,-15.4192,21.12,68,20,10.29,ES,1681324836
198,mbandaka,0.0487,18.2603,23.26,77,100,2.25,CD,1681324836
199,beloha,-25.1667,45.05,21.36,91,0,2.21,MG,1681324836
200,kirakira,-10.4544,161.9205,26.08,83,51,0.04,SB,1681324836
201,swellendam,-34.0226,20.4417,15.97,59,100,1.21,ZA,1681324837
202,sokolskoye,57.1412,43.1589,6.01,67,94,1.38,RU,1681324837
203,kapit,2.0167,112.9333,22.74,99,97,0.28,MY,1681324837
204,caravelas,-17.7125,-39.2481,26.17,79,42,3.66,BR,1681324837
205,ramona,33.0417,-116.8681,20.42,72,40,3.09,US,1681324837
206,pisco,-13.7,-76.2167,26.68,65,0,5.14,PE,1681324837
207,dutlwe,-23.9833,23.9,22.21,29,0,2.88,BW,1681324837
208,beringovskiy,63.05,179.3167,-20.01,93,67,4.7,RU,1681324838
209,faya,18.3851,42.4509,18.06,52,5,2.93,SA,1681324838
210,fairbanks,64.8378,-147.7164,-7.17,80,100,2.06,US,1681324593
211,paamiut,61.994,-49.6678,-0.17,54,10,1.5,GL,1681324838
212,linkoping,58.4109,15.6216,8.21,80,20,3.6,SE,1681324838
213,karratha,-20.7377,116.8463,28.73,69,100,1.76,AU,1681324838
214,port hueneme,34.1478,-119.1951,16.29,92,100,2.57,US,1681324839
215,sao filipe,14.8961,-24.4956,22.34,77,13,3.32,CV,1681324839
216,poum,-20.2333,164.0167,26.08,78,6,3.74,NC,1681324839
217,siirt,37.9326,41.9403,8.42,89,18,1.55,TR,1681324839
218,saint-ambroise,48.5501,-71.3324,6.43,60,100,6.69,CA,1681324839
219,el cope,8.6167,-80.6,28.08,51,48,5.19,PA,1681324839
220,chicama,-7.8447,-79.1469,28.3,66,90,4.36,PE,1681324839
221,katangli,51.7102,143.2326,-1.74,96,100,6.59,RU,1681324839
222,lastoursville,-0.8143,12.7287,24.07,85,99,0.92,GA,1681324840
223,geraldton,-28.7667,114.6,14.23,94,0,3.6,AU,1681324840
224,cisterna,-11.9287,-41.8553,31.84,29,4,4.2,BR,1681324840
225,caconda,-13.7333,15.0667,19.18,64,100,2.03,AO,1681324840
226,iqaluit,63.7506,-68.5145,-6.15,63,75,1.03,CA,1681324840
227,puerto escondido,15.85,-97.0667,31.46,70,0,5.14,MX,1681324661
228,salalah,17.0151,54.0924,29.05,70,20,1.54,OM,1681324608
229,arraial do cabo,-22.9661,-42.0278,26.98,69,40,6.69,BR,1681324841
230,dunda,-8.1167,34.25,18.46,94,100,1.5,TZ,1681324841
231,labuhan,-6.8844,112.2051,25.44,90,100,3.99,ID,1681324841
232,te anau,-45.4167,167.7167,10.07,96,100,1.89,NZ,1681324841
233,necochea,-38.5473,-58.7368,15.41,47,100,9.14,AR,1681324841
234,damghan,36.1683,54.348,21.71,25,40,1.01,IR,1681324841
235,huron,41.1501,-82.5499,25.38,42,0,7.97,US,1681324841
236,san carlos,9.6612,-68.5827,35.48,34,99,0.74,VE,1681324842
237,lompoc,34.6391,-120.4579,16.63,66,75,8.94,US,1681324842
238,pangody,65.85,74.4859,-27.73,100,70,3.21,RU,1681324842
239,awjilah,29.1081,21.2869,19.36,27,0,4.07,LY,1681324842
240,elliot lake,46.3834,-82.6331,18.44,62,1,6.27,CA,1681324826
241,san quintin,30.4833,-115.95,16.57,68,91,5.32,MX,1681324842
242,yenagoa,4.9247,6.2642,26.19,86,90,1.89,NG,1681324842
243,opuwo,-18.0607,13.84,23.92,35,54,2.77,NA,1681324842
244,biak,-0.9131,122.8766,24.81,84,92,1.0,ID,1681324842
245,olden,61.8364,6.8064,10.41,73,100,3.37,NO,1681324843
246,along,28.1667,94.7667,18.38,78,7,1.01,IN,1681324843
247,shumyachi,53.8583,32.4242,11.24,54,100,4.2,RU,1681324843
248,kavieng,-2.5744,150.7967,26.72,83,100,6.46,PG,1681324843
249,rosarito,32.3333,-117.0333,16.48,75,100,3.83,MX,1681324843
250,lyngdal,58.1376,7.07,6.61,86,100,9.56,NO,1681324843
251,hobyo,5.3505,48.5268,28.43,75,99,5.47,SO,1681324843
252,suhut,38.5311,30.5458,4.76,85,83,2.53,TR,1681324844
253,naryan-mar,67.6713,53.087,-24.04,100,23,2.42,RU,1681324844
254,namibe,-15.1961,12.1522,23.07,72,42,3.05,AO,1681324844
255,taoudenni,22.6783,-3.9836,30.17,7,100,2.34,ML,1681324844
256,sarreguemines,49.0833,7.3333,10.47,90,100,4.59,FR,1681324844
257,sitka,57.0531,-135.33,4.94,60,100,4.63,US,1681324844
258,mantua,45.1667,10.7833,15.34,67,100,0.89,IT,1681324844
259,dryden,49.7833,-92.7503,17.16,42,40,1.54,CA,1681324844
260,bubaque,11.2833,-15.8333,25.29,76,98,7.54,GW,1681324845
261,nemuro,43.3236,145.575,2.39,78,9,5.33,JP,1681324845
262,portland,45.5234,-122.6762,7.69,86,100,5.14,US,1681324768
263,dunedin,-45.8742,170.5036,11.56,99,100,0.45,NZ,1681324845
264,provideniya,64.3833,-173.3,-15.73,86,50,2.27,RU,1681324845
265,ust-kulom,61.6864,53.6902,0.39,95,100,2.12,RU,1681324845
266,husavik,66.0449,-17.3389,1.11,97,100,1.99,IS,1681324846
267,urdoma,61.7533,48.5442,0.01,98,100,4.16,RU,1681324846
268,port elizabeth,-33.918,25.5701,17.28,86,0,1.54,ZA,1681324846
269,kinablangan,7.6947,126.5503,25.3,87,18,1.94,PH,1681324846
270,ondjiva,-17.0667,15.7333,26.35,36,97,2.42,AO,1681324846
271,kampot,10.6167,104.1833,26.86,82,90,1.88,KH,1681324846
272,huarmey,-10.0681,-78.1522,25.64,78,93,3.3,PE,1681324847
273,port hedland,-20.3167,118.5667,27.03,83,100,3.09,AU,1681324847
274,svetlaya,46.5389,138.3297,2.61,65,100,5.46,RU,1681324847
275,mogwase,-25.185,27.2665,19.17,47,2,1.87,ZA,1681324847
276,vila velha,-20.3297,-40.2925,26.97,76,75,3.09,BR,1681324847
277,moissala,8.3404,17.7663,31.8,30,100,0.68,TD,1681324847
278,nicolas bravo,18.45,-88.9167,33.9,34,89,0.99,MX,1681324847
279,nyimba,-14.5566,30.8149,19.17,87,60,1.89,ZM,1681324848
280,cabrobo,-8.5142,-39.31,33.61,31,10,2.91,BR,1681324753
281,yambio,4.5721,28.3955,23.09,74,99,1.31,SS,1681324848
282,youkounkoun,12.5333,-13.1333,37.2,17,100,2.11,GN,1681324848
283,inhambane,-23.865,35.3833,22.99,83,0,0.0,MZ,1681324848
284,bin qirdan,33.1378,11.2197,23.97,23,0,4.17,TN,1681324848
285,topolobampo,25.6,-109.05,26.95,34,40,4.63,MX,1681324848
286,senador jose porfirio,-2.5908,-51.9542,29.1,70,48,1.54,BR,1681324849
287,anadyr,64.75,177.4833,-23.72,77,0,3.0,RU,1681324849
288,cap malheureux,-19.9842,57.6142,24.7,84,20,4.19,MU,1681324849
289,gladstone,-23.85,151.25,19.96,88,75,2.57,AU,1681324849
290,tual,-5.6667,132.75,28.45,72,93,2.93,ID,1681324849
291,marsa matruh,31.3525,27.2453,16.11,67,20,5.14,EG,1681324849
292,tura,25.5198,90.2201,24.2,27,0,1.89,IN,1681324849
293,bocanda,7.0626,-4.4995,30.63,49,100,2.37,CI,1681324850
294,yaan,7.3833,8.5667,31.72,45,12,4.14,NG,1681324850
295,saint anthony,45.0205,-93.218,29.02,37,0,7.72,US,1681324850
296,svetlogorsk,52.6333,29.7333,8.9,89,100,5.84,BY,1681324850
297,yulara,-25.2406,130.9889,25.72,45,100,2.97,AU,1681324850
298,nanortalik,60.1432,-45.2371,1.02,88,100,0.71,GL,1681324850
299,ushumun,52.7833,126.5333,-2.01,82,100,2.52,RU,1681324850
300,cabo san lucas,22.8909,-109.9124,31.17,21,0,3.09,MX,1681324851
301,fortuna,40.5982,-124.1573,10.92,64,6,4.47,US,1681324851
302,shakawe,-18.3667,21.85,22.48,32,3,1.48,BW,1681324851
303,soyo,-6.1349,12.3689,25.72,86,100,2.34,AO,1681324851
304,boca do acre,-8.7522,-67.3978,32.52,57,100,0.68,BR,1681324851
305,riohacha,11.5444,-72.9072,30.06,70,40,4.63,CO,1681324851
306,sao felix do xingu,-6.6447,-51.995,28.47,78,72,1.48,BR,1681324851
307,kahului,20.8947,-156.47,26.09,59,0,8.75,US,1681324815
308,charters towers,-20.1,146.2667,22.01,95,98,2.4,AU,1681324852
309,alofi,-19.0595,-169.9187,22.94,88,34,3.6,NU,1681324852
310,ayutla,20.1167,-104.3333,30.33,17,6,2.94,MX,1681324852
311,ranong,9.9658,98.6348,26.56,89,41,1.52,TH,1681324852
312,bundibugyo,0.7414,30.0417,21.65,81,97,1.39,UG,1681324852
313,mount pleasant,32.7941,-79.8626,27.22,43,0,4.63,US,1681324852
314,kogon,39.7228,64.5517,20.02,49,0,3.09,UZ,1681324852
315,esso,55.9333,158.7,-15.17,100,94,1.94,RU,1681324852
316,edd,13.9297,41.6925,31.46,56,100,8.45,ER,1681324853
317,pangnirtung,66.1451,-65.7125,-9.0,62,20,1.54,CA,1681324853
318,launceston,-41.45,147.1667,12.86,92,3,5.14,AU,1681324853
319,sayyan,15.1718,44.3244,17.43,55,32,0.51,YE,1681324853
320,xingyi,24.1877,102.817,18.06,27,1,3.56,CN,1681324853
321,adrar,20.5022,-10.0711,29.31,29,100,4.86,MR,1681324853
322,den helder,52.9599,4.7593,9.45,73,8,8.05,NL,1681324854
323,luis correia,-2.8792,-41.6669,28.04,78,78,3.3,BR,1681324854
324,padang,-0.9492,100.3543,25.03,87,92,0.97,ID,1681324854
325,henties bay,-22.116,14.2845,15.58,82,0,3.65,NA,1681324854
326,petropavlovsk-kamchatskiy,53.0452,158.6483,-0.67,80,75,3.0,RU,1681324854
327,yangambi,0.8102,24.4336,22.28,78,100,0.94,CD,1681324854
328,kifri,34.6959,44.9661,18.05,93,100,15.72,IQ,1681324855
329,shubarkuduk,49.1447,56.4872,12.08,57,100,5.2,KZ,1681324855
330,bam,29.106,58.357,25.81,21,0,3.16,IR,1681324855
331,lucapa,-8.4192,20.7447,18.88,97,100,0.58,AO,1681324855
332,portel,-1.9356,-50.8211,28.13,84,26,0.71,BR,1681324752
333,broome,42.2506,-75.833,26.5,37,75,7.72,US,1681324855
334,aldergrove,49.058,-122.4709,10.12,64,40,1.54,CA,1681324786
335,mobaye,4.319,21.1786,24.72,67,76,1.27,CF,1681324856
336,cidreira,-30.1811,-50.2056,27.6,59,100,2.5,BR,1681324856
337,nabire,-3.3667,135.4833,23.74,88,88,1.52,ID,1681324856
338,vila franca do campo,37.7167,-25.4333,16.23,81,100,1.17,PT,1681324856
339,cairns,-16.9167,145.7667,24.97,97,100,1.54,AU,1681324856
340,morant bay,17.8815,-76.4093,29.84,68,15,4.52,JM,1681324856
341,sotnikovo,51.8845,107.4791,1.05,75,40,5.0,RU,1681324856
342,buchanan,5.8808,-10.0467,27.66,79,35,2.63,LR,1681324857
343,kloulklubed,7.0419,134.2556,24.28,78,42,3.63,PW,1681324857
344,logansport,40.7545,-86.3567,26.87,32,0,8.75,US,1681324587
345,sembe,1.6481,14.5806,24.28,77,94,1.26,CG,1681324857
346,maumere,-8.6199,122.2111,26.49,86,100,2.69,ID,1681324857
347,shillong,25.5689,91.8831,15.68,34,0,1.42,IN,1681324857
348,saint-joseph,-21.3667,55.6167,25.21,84,18,0.97,RE,1681324857
349,nava,28.4167,-100.7667,23.61,38,0,5.21,MX,1681324857
350,vao,-22.6667,167.4833,24.38,78,100,1.45,NC,1681324858
351,homer,59.6425,-151.5483,2.93,80,75,7.6,US,1681324858
352,egvekinot,66.3167,-179.1667,-20.3,87,100,2.89,RU,1681324858
353,leningradskiy,69.3833,178.4167,-21.97,96,100,2.2,RU,1681324858
354,kristiinankaupunki,62.2743,21.376,7.28,97,100,5.99,FI,1681324858
355,pozo colorado,-23.4923,-58.7972,32.53,46,61,3.14,PY,1681324858
356,sibu,2.3,111.8167,25.17,100,40,0.0,MY,1681324695
357,gilgit,35.9221,74.3087,13.54,49,7,1.42,PK,1681324859
358,naze,28.3667,129.4833,16.51,68,21,4.82,JP,1681324859
359,maniitsoq,65.4167,-52.9,-1.14,84,24,4.66,GL,1681324859
360,lazaro cardenas,17.9583,-102.2,29.65,46,100,4.62,MX,1681324785
361,praia da vitoria,38.7333,-27.0667,17.14,88,40,3.97,PT,1681324859
362,ugoofaaru,5.6667,73.0,28.63,77,11,4.25,MV,1681324859
363,puerto ayacucho,5.6639,-67.6236,34.12,43,89,2.06,VE,1681324860
364,sydney,-33.8679,151.2073,15.61,79,75,4.63,AU,1681324553
365,le vauclin,14.5452,-60.8388,30.03,58,40,8.23,MQ,1681324860
366,ust-maya,60.4167,134.5333,-14.79,97,79,1.59,RU,1681324860
367,kemijarvi,66.7131,27.4306,-4.86,89,8,2.59,FI,1681324860
368,ipixuna,-1.7625,-48.8043,28.3,76,60,1.35,BR,1681324860
369,voh,-20.9667,164.7,22.43,92,33,0.81,NC,1681324860
370,nakamura,32.9833,132.9333,8.53,75,0,2.25,JP,1681324861
371,camacha,33.0833,-16.3333,17.68,59,20,7.72,PT,1681324861
372,kieta,-6.2167,155.6333,25.37,86,100,1.18,PG,1681324861
373,sawtell,-30.3833,153.1,17.01,77,100,2.57,AU,1681324861
374,lingyuan,41.24,119.4011,9.2,42,75,2.8,CN,1681324861
375,iquique,-20.2208,-70.1431,24.02,68,7,1.73,CL,1681324439
376,muros,42.7762,-9.0603,13.38,56,6,5.84,ES,1681324861
377,montefiascone,42.5393,12.0362,12.4,77,0,5.14,IT,1681324862
378,esperance,-33.8667,121.9,17.77,70,0,3.3,AU,1681324862
379,bijar,35.8668,47.6051,10.57,78,100,8.85,IR,1681324862
380,nome,64.5011,-165.4064,-21.02,70,0,0.0,US,1681324577
381,axim,4.8699,-2.2405,26.99,87,96,2.75,GH,1681324863
382,belmonte,-15.8631,-38.8828,26.87,78,8,3.27,BR,1681324864
383,tabas,33.5959,56.9244,26.12,15,3,3.09,IR,1681324864
384,yar-sale,66.8333,70.8333,-26.09,97,26,4.49,RU,1681324864
385,klaksvik,62.2266,-6.589,7.51,90,97,12.63,FO,1681324864
386,kavaratti,10.5669,72.642,28.71,73,3,2.72,IN,1681324864
387,hasaki,35.7333,140.8333,12.22,57,100,9.98,JP,1681324865
388,vostok,46.4856,135.8833,-1.93,72,99,4.24,RU,1681324865
389,srednekolymsk,67.45,153.6833,-19.83,96,100,1.58,RU,1681324865
390,luau,-10.7073,22.2247,18.33,97,55,1.5,AO,1681324866
391,road town,18.4167,-64.6167,28.05,74,12,4.38,VG,1681324866
392,sangar,63.9242,127.4739,-9.53,94,100,1.3,RU,1681324866
393,georgiyevka,43.0369,74.7114,10.02,76,0,4.0,KZ,1681324867
394,san patricio,28.017,-97.5169,26.04,42,0,2.47,US,1681324867
395,ulaangom,49.9811,92.0667,-3.87,42,0,0.99,MN,1681324867
396,faanui,-16.4833,-151.75,28.09,67,84,4.08,PF,1681324867
397,guerrero negro,27.9769,-114.0611,18.18,58,98,6.62,MX,1681324868
398,arani,12.6667,79.2833,25.4,57,0,1.43,IN,1681324868
399,gazanjyk,39.2446,55.5154,25.68,26,99,1.3,TM,1681324868
400,evensk,61.95,159.2333,-18.49,80,1,3.26,RU,1681324868
401,hami,42.8,93.45,10.28,38,36,2.83,CN,1681324868
402,gat,31.61,34.7642,13.38,100,7,5.08,IL,1681324868
403,verkhniy baskunchak,48.2256,46.7217,16.82,32,94,11.66,RU,1681324869
404,mandalgovi,45.7625,106.2708,3.94,26,100,2.77,MN,1681324869
405,denpasar,-8.65,115.2167,25.81,94,40,1.54,ID,1681324699
406,tautira,-17.7333,-149.15,27.0,73,14,3.46,PF,1681324869
407,freetown,8.484,-13.2299,28.84,61,40,4.12,SL,1681324869
408,cadiz,36.5,-5.75,18.19,83,100,2.12,ES,1681324870
409,eenhana,-17.4667,16.3333,25.52,37,65,2.57,NA,1681324870
410,oranjemund,-28.55,16.4333,13.91,87,90,1.81,NA,1681324870
411,anori,-3.7728,-61.6442,29.61,70,100,1.17,BR,1681324870
412,college,64.8569,-147.8028,-7.17,79,100,2.06,US,1681324870
413,shingu,33.7333,135.9833,10.04,85,0,3.08,JP,1681324870
414,mithi,24.7318,69.7981,29.48,37,100,5.98,PK,1681324871
415,teya,60.3778,92.6267,-5.08,92,100,5.53,RU,1681324871
416,tambovka,50.0969,128.0489,0.13,60,100,4.6,RU,1681324871
417,mino,34.8269,135.4706,9.57,78,0,2.57,JP,1681324871
418,taboga,46.2663,13.1092,13.27,62,100,0.72,IT,1681324871
419,grindavik,63.8424,-22.4338,5.97,75,75,7.2,IS,1681324872
420,pathein,16.7833,94.7333,26.39,79,0,4.33,MM,1681324872
421,waitati,-45.75,170.5667,11.56,99,100,2.74,NZ,1681324872
422,souillac,-20.5167,57.5167,25.21,88,20,2.06,MU,1681324872
423,arica,-18.475,-70.3042,28.75,60,0,6.69,CL,1681324519
424,popondetta,-8.7537,148.2534,22.67,95,95,1.42,PG,1681324873
425,oktyabrskoye,43.0645,44.7417,12.08,87,100,1.0,RU,1681324873
426,auki,-8.7676,160.7034,24.68,87,41,1.22,SB,1681324873
427,beitbridge,-22.2167,30.0,21.67,58,0,1.55,ZW,1681324873
428,constitucion,-35.3333,-72.4167,16.22,76,100,2.73,CL,1681324873
429,rute,37.3269,-4.3683,16.21,41,100,3.63,ES,1681324874
430,pevek,69.7008,170.3133,-22.04,95,95,2.03,RU,1681324874
431,atar,20.5169,-13.0499,35.03,23,40,0.0,MR,1681324874
432,potsdam,52.3989,13.0657,11.7,76,100,4.49,DE,1681324874
433,dongen,51.6267,4.9389,10.05,62,2,3.6,NL,1681324874
434,ust-ilimsk,58.0006,102.6619,-9.97,97,100,2.03,RU,1681324875
435,muswellbrook,-32.2667,150.9,13.51,95,47,1.51,AU,1681324875
436,puerto quijarro,-17.7833,-57.7667,31.38,56,100,1.05,BO,1681324875
437,neyshabur,36.2133,58.7958,23.21,18,87,3.7,IR,1681324875
438,rio gallegos,-51.6226,-69.2181,8.03,42,0,3.09,AR,1681324634
439,hare bay,48.8499,-54.0148,9.64,84,100,2.0,CA,1681324876
440,gizo,-8.103,156.8419,26.27,82,93,1.76,SB,1681324877
441,synya,65.3718,58.0387,-19.29,84,16,5.7,RU,1681324877
442,barkhan,29.8977,69.5256,23.07,28,0,1.55,PK,1681324877
443,letlhakane,-21.4167,25.5833,21.15,38,0,3.84,BW,1681324877
444,khandyga,62.6667,135.6,-7.77,97,100,0.89,RU,1681324878
445,whitehorse,60.7161,-135.0538,1.17,51,75,3.6,CA,1681324878
446,mangrol,21.1167,70.1167,26.76,66,48,5.02,IN,1681324878
447,port moresby,-9.4431,147.1797,23.68,94,75,1.54,PG,1681324601
448,tamana,32.9167,130.5667,11.4,47,4,1.99,JP,1681324879
449,udarnyy,54.3409,42.8611,9.81,51,100,2.67,RU,1681324879
450,komsomolskiy,40.4272,71.7189,12.4,87,100,2.06,UZ,1681324879
451,aksha,50.2814,113.2867,-1.27,57,100,0.79,RU,1681324880
452,sabana de torres,7.3915,-73.4957,33.34,62,95,1.74,CO,1681324880
453,haines junction,60.7522,-137.5108,-0.03,43,100,2.06,CA,1681324880
454,pemba,-12.974,40.5178,28.39,83,40,2.06,MZ,1681324880
455,leh,34.1667,77.5833,-5.72,57,6,1.35,IN,1681324881
456,mayor pablo lagerenza,-19.9309,-60.7718,31.08,54,99,3.86,PY,1681324881
457,palmer,42.1584,-72.3287,24.48,27,75,6.69,US,1681324881
458,svetlyy,54.675,20.1347,10.03,84,94,2.64,RU,1681324881
459,ichnya,50.8626,32.3942,9.17,84,100,6.38,UA,1681324882
460,greensburg,40.3015,-79.5389,26.42,39,20,8.75,US,1681324882
461,ostrovnoy,68.0531,39.5131,-7.59,76,100,2.36,RU,1681324883
462,verkhnetulomskiy,68.6073,31.7962,-3.93,82,5,2.24,RU,1681324883
463,san ramon,37.7799,-121.978,15.62,52,0,8.23,US,1681324883
464,meulaboh,4.1363,96.1285,25.38,86,98,1.69,ID,1681324883
465,mastic beach,40.7668,-72.8521,27.34,25,0,4.63,US,1681324883
466,shihezi,44.3,86.0333,10.73,49,41,0.25,CN,1681324884
467,mahon,39.8885,4.2658,17.31,94,0,3.09,ES,1681324813
468,tahta,26.7693,31.5021,18.54,30,0,3.63,EG,1681324884
469,tubmanburg,6.8708,-10.8172,27.53,74,100,3.12,LR,1681324884
470,ust-nera,64.5667,143.2,-17.23,97,72,0.38,RU,1681324884
471,bella vista,36.4295,-94.2316,24.77,40,0,5.66,US,1681324884
472,talovaya,51.1144,40.73,11.05,54,100,7.14,RU,1681324885
473,jalu,29.0331,21.5482,19.41,26,0,3.87,LY,1681324885
474,maningrida,-12.0667,134.2667,24.85,91,85,1.94,AU,1681324885
475,nyuksenitsa,60.4128,44.2397,0.36,93,85,2.08,RU,1681324863
476,aklavik,68.2191,-135.0107,-19.0,65,100,1.54,CA,1681324885
477,baruun-urt,46.6806,113.2792,1.54,29,100,3.78,MN,1681324885
478,saint-pierre,-21.3393,55.4781,25.82,83,20,1.54,RE,1681324886
479,moose factory,51.2585,-80.6094,3.0,75,0,7.2,CA,1681324886
480,hammerfest,70.6634,23.6821,2.25,60,0,7.72,NO,1681324886
481,sabha,27.0377,14.4283,19.09,13,0,3.14,LY,1681324887
482,ntcheu,-14.8203,34.6359,17.18,95,98,1.66,MW,1681324887
483,marsh harbour,26.5412,-77.0636,22.6,82,100,11.65,BS,1681324887
484,nova olimpia,-14.7972,-57.2881,29.24,74,84,1.37,BR,1681324887
485,kalaleh,37.3807,55.4916,17.78,77,0,2.06,IR,1681324888
486,palauig,15.435,119.9045,26.08,80,100,0.53,PH,1681324888
487,ereymentau,51.6199,73.1033,5.46,42,2,7.04,KZ,1681324888
488,yarmouth,41.7057,-70.2286,23.26,24,0,4.63,US,1681324888
489,smithers,54.7804,-127.1743,5.18,56,20,2.06,CA,1681324889
490,prince albert,53.2001,-105.7677,5.97,65,20,3.6,CA,1681324890
491,kautokeino,69.0125,23.0412,-0.58,91,100,6.71,NO,1681324890
492,kilmallock,52.4,-8.5772,7.46,77,100,4.92,IE,1681324891
493,vengerovo,55.6848,76.7471,2.14,74,100,4.78,RU,1681324891
494,ixtapa,20.7,-105.2,25.57,69,40,5.14,MX,1681324892
495,hambantota,6.1241,81.1185,25.19,100,20,1.03,LK,1681324892
496,bairiki,1.3292,172.9752,26.0,89,40,1.54,KI,1681324892
497,houma,29.5958,-90.7195,21.67,82,75,4.63,US,1681324751
498,singaraja,-8.112,115.0882,26.4,87,96,1.73,ID,1681324892
499,misratah,32.3754,15.0925,18.18,47,0,2.45,LY,1681324893
500,conceicao da barra,-18.5933,-39.7322,27.31,65,32,4.39,BR,1681324893
501,nouakchott,18.0858,-15.9785,24.96,64,6,7.58,MR,1681324893
502,saint-augustin,51.226,-58.6502,6.57,77,100,1.87,CA,1681324893
503,kamenka,51.3223,42.7678,10.78,54,100,4.67,RU,1681324894
504,ouadda,8.0777,22.4007,24.06,66,99,0.27,CF,1681324894
505,bagnols-sur-ceze,44.1599,4.6178,15.92,51,100,5.66,FR,1681324894
506,prince rupert,54.3161,-130.3201,4.05,87,100,4.63,CA,1681324895
507,shieli,44.1667,66.75,16.87,33,11,3.74,KZ,1681324895
508,adre,13.4667,22.2,28.35,14,9,7.3,TD,1681324895
509,krasnoselkup,65.7,82.4667,-28.51,100,71,3.59,RU,1681324895
510,sao joao da barra,-21.6403,-41.0511,27.05,76,100,5.45,BR,1681324653
511,chemal,51.4111,86.005,-3.59,84,26,1.91,RU,1681324895
512,panjab,34.388,67.0233,5.63,44,3,0.96,AF,1681324896
513,hoa binh,20.8133,105.3383,24.83,97,100,1.15,VN,1681324896
514,bechem,7.0903,-2.025,27.45,59,91,1.5,GH,1681324896
515,boksitogorsk,59.474,33.8485,2.56,91,21,2.77,RU,1681324896
516,vadso,70.0744,29.7487,-0.91,59,0,5.66,NO,1681324896
517,melioratorov,57.2107,65.6077,4.24,45,0,6.0,RU,1681324896
518,sovetskiy,61.3614,63.5842,-3.41,96,100,4.33,RU,1681324897
519,akhmim,26.5622,31.745,19.11,31,0,3.66,EG,1681324897
520,sirohi,24.8833,72.8667,26.86,24,100,2.94,IN,1681324897
521,tadine,-21.55,167.8833,24.71,84,94,0.68,NC,1681324897
522,punta gorda,26.9298,-82.0454,23.02,63,100,9.85,US,1681324897
523,raudeberg,61.9875,5.1352,9.93,46,86,3.11,NO,1681324897
524,goderich,43.7501,-81.7165,20.18,49,2,6.69,CA,1681324898
525,araouane,18.9048,-3.5265,30.23,7,99,3.42,ML,1681324898
526,arrifes,37.7667,-25.7,15.14,82,75,3.6,PT,1681324898
527,mabaruma,8.2,-59.7833,32.0,58,75,2.06,GY,1681324898
528,buin,-33.7333,-70.75,25.24,45,100,2.86,CL,1681324898
529,lenger,42.183,69.8839,11.69,57,69,2.99,KZ,1681324898
530,capao da canoa,-29.7456,-50.0097,28.67,56,15,1.07,BR,1681324677
531,qaqortoq,60.7167,-46.0333,1.33,80,92,0.28,GL,1681324899
532,waddan,29.1614,16.139,19.39,17,0,3.22,LY,1681324899
533,merauke,-8.4667,140.3333,23.48,96,100,1.77,ID,1681324899
534,sorkjosen,69.8,20.9333,3.0,70,20,7.72,NO,1681324899
535,anloga,5.7947,0.8973,28.33,75,22,3.51,GH,1681324899
536,carlsbad,33.1581,-117.3506,19.94,87,100,3.6,US,1681324899
537,khani,41.9563,42.9566,5.76,98,100,1.44,GE,1681324899
538,chipiona,36.7366,-6.437,19.61,82,0,6.69,ES,1681324900
539,soure,-0.7167,-48.5233,28.49,79,81,3.07,BR,1681324900
540,natal,-5.795,-35.2094,30.36,66,75,8.75,BR,1681324556
541,viedma,-40.8135,-62.9967,14.08,38,84,11.3,AR,1681324900
542,tabou,4.423,-7.3528,26.17,87,10,1.05,CI,1681324900
543,mpongwe,-13.5091,28.155,18.87,89,100,2.36,ZM,1681324900
544,walvis bay,-22.9575,14.5053,15.46,83,0,3.95,NA,1681324900
545,narrabri,-30.3167,149.7833,9.18,92,5,2.58,AU,1681324900
546,iacu,-12.7672,-40.2117,30.94,46,94,3.66,BR,1681324900
547,sakakah,29.9697,40.2064,16.76,38,0,11.04,SA,1681324901
548,tulagi,-9.0996,160.1476,27.71,72,48,1.82,SB,1681324901
549,marand,38.4329,45.7749,12.08,86,100,4.47,IR,1681324901
550,kefalos,36.7453,26.9589,15.12,67,20,4.12,GR,1681324901
551,plettenberg bay,-34.0527,23.3716,14.68,56,100,0.86,ZA,1681324901
